,value,label,label2,codigo,cidade,lat,lng,cep,hora,cod
0,RIO BRANCO AEROPORTO,"RIO BRANCO AEROPORTO,RBR,Aeroporto",RIO BRANCO AEROPORTO,RBR,RIO BRANCO,-9.868889,-67.898056,69923-900,Segunda a Sexta - 8:00 às 17:00 | Sábado - 8:00 às 12:00 | Domingo e Feriado - fechada,AEROPORTO
1,MACEIO AEROPORTO,"MACEIO AEROPORTO,MCZ,Aeroporto",MACEIO AEROPORTO,MCZ,MACEIÓ,-9.515222,-35.792669,57100-971,Todos os dias 24h  (inclusive feriados),AEROPORTO
2,MACEIO FAROL,"MACEIO FAROL,MAA,RUA",MACEIO FAROL,MAA,MACEIÓ,-9.62126,-35.739449,57057-000,Segunda a Sexta: 8:00 às 18:00 | Sábados - 8:00 às 12:00 | Domingos e Feriados: Fechada.,cidade
3,MACAPA AEROPORTO,"MACAPA AEROPORTO,MCP,Aeroporto",MACAPA AEROPORTO,MCP,MACAPÁ,0.049787,-51.068483,68901-271,Todos os dias das 24h (inclusive feriados).,AEROPORTO
4,MANAUS AEROPORTO,"MANAUS AEROPORTO,MAO,Aeroporto",MANAUS AEROPORTO,MAO,MANAUS,-3.03188,-60.04672,69041-000,Todos os dias das 07:00 às 23:00 (inclusive feriados).,AEROPORTO
5,MANAUS CENTRO,"MANAUS CENTRO,MOVMAN,RUA",MANAUS CENTRO,MOVMAN,MANAUS,-3.064295,-60.02472,69058-830,Segunda a sexta das 8h às 17h | Sábado das 8h às 12h | Domingos e Feriados - fechada,cidade
6,FEIRA DE SANTANA,"FEIRA DE SANTANA,FEC,RUA",FEIRA DE SANTANA,FEC,FEIRA DE SANTANA,-12.268236,-38.940406,44076-130,Segunda a Sexta - 08:00 às 17:00 | Sábado - 08:00 às 12:00 | Domingos e Feriado - fechada.,cidade
7,ILHEUS AEROPORTO,"ILHEUS AEROPORTO,IOS,Aeroporto",ILHEUS AEROPORTO,IOS,ILHÉUS,-14.814123,-39.032257,45654-165,Todos os dias 07:00 às 18:00 (inclusive feriados).,AEROPORTO
8,SALVADOR AEROPORTO,"SALVADOR AEROPORTO,SSA,Aeroporto",SALVADOR AEROPORTO,SSA,LAURO DE FREITAS,-12.914156,-38.336458,42703-440,Todos os dias 24hs  (inclusive feriados).,AEROPORTO
9,PORTO SEGURO AEROPORTO,"PORTO SEGURO AEROPORTO,BPS,Aeroporto",PORTO SEGURO AEROPORTO,BPS,PORTO SEGURO,-16.439813,-39.077685,45810-000,Todos os dias - 24h (inclusive feriados).,AEROPORTO
10,SALVADOR - PARALELA,"SALVADOR - PARALELA,SPAPP,RUA",SALVADOR - PARALELA,SPAPP,SALVADOR,-12.9394659,-38.4099733,41730-101,Segunda a Sexta - 07:00 às 19:00 | Sábado - 08:00 às 12:00 | Domingos e Feriados - fechada,cidade
11,SALVADOR AMARALINA - PITUBA,"SALVADOR AMARALINA - PITUBA,MOVSVD,RUA",SALVADOR AMARALINA - PITUBA,MOVSVD,SALVADOR,-13.007908,-38.463724,41900-325,Segunda a Sexta - 8:00 às 18:00 | Sábado - 8:00 às 12:00 | Domingos e Feriado - 8:00 as 12:00,cidade
12,VITORIA DA CONQUISTA AEROPORTO,"VITORIA DA CONQUISTA AEROPORTO,VDC,Aeroporto",VITORIA DA CONQUISTA AEROPORTO,VDC,VITÓRIA DA CONQUISTA,-14.8628,-40.8631,45105-000,Segunda a Sexta das  09:00 às 01:20 | Sábados das 09:00 às 17:20 | Domingos e feriados das 15:00 às 23:20.,AEROPORTO
13,FORTALEZA AEROPORTO,"FORTALEZA AEROPORTO,FOR,Aeroporto",FORTALEZA AEROPORTO,FOR,FORTALEZA,-3.782576,-38.535872,60741-970,Todos os dias 24 horas (inclusive feriados).,AEROPORTO
14,FORTALEZA CENTRO,"FORTALEZA CENTRO,FORC,RUA",FORTALEZA CENTRO,FORC,FORTALEZA,-3.724223,-38.508646,60165-068,Segunda a Sexta - 08:00 às 18:00 | Sábado 8:00 às 12:00 |Domingos e Feriado - fechada.,cidade
15,JUAZEIRO DO NORTE AEROPORTO,"JUAZEIRO DO NORTE AEROPORTO,JDOC01,Aeroporto",JUAZEIRO DO NORTE AEROPORTO,JDOC01,JUAZEIRO DO NORTE,-7.213632,-39.280995,63020-735,Segunda a Sábado - 23:00 às 18:00 |  Domingos e Feriados - 23:00 às 18:00,AEROPORTO
16,BRASILIA AEROPORTO,"BRASILIA AEROPORTO,BSB,Aeroporto",BRASILIA AEROPORTO,BSB,BRASÍLIA,-15.870915,-47.932112,71608-900,Todos os dias - 24h (inclusive feriados).,AEROPORTO
17,BRASILIA SIA,"BRASILIA SIA,BSBC02,RUA",BRASILIA SIA,BSBC02,BRASÍLIA,-15.8063765,-47.9569296,71200-020,Segunda a Sexta - 07:00 às 19:00 | Sábado - 08:00 às 14:00 | Domingo e Feriado: Fechada,cidade
18,VITORIA SANTA LUCIA,"VITORIA SANTA LUCIA,VIXC01,RUA",VITORIA SANTA LUCIA,VIXC01,VITÓRIA,-20.303247,-40.300154,29056-260,Segunda a Sexta - 8:00 às 17:00 | Sábado - 8:00 às 12:00 | Domingo e Feriado: Fechada.,cidade
19,VITORIA AEROPORTO,"VITORIA AEROPORTO,VIX,Aeroporto",VITORIA AEROPORTO,VIX,VITÓRIA,-20.264209,-40.282989,29075-685,Todos os dias - 24h,AEROPORTO
20,ANAPOLIS,"ANAPOLIS,MOVANP,RUA",ANAPOLIS,MOVANP,ANÁPOLIS,-16.340481,-48.954222,75123-115,Segunda a Sexta - 08:00 às 18:00 | Sábados - 08:00 às 12:00 | Domingos e Feriados - fechada.,cidade
21,APARECIDA DE GOIANIA,"APARECIDA DE GOIANIA,MOVAG,RUA",APARECIDA DE GOIANIA,MOVAG,APARECIDA DE GOIÂNIA,-16.74549,-49.282641,74916-260,Segunda a Sexta - 07:00 às 19:00 | Sábados - 07:00 às 12:00 | Domingos e Feriados - fechada.,cidade
22,GOIANIA AEROPORTO,"GOIANIA AEROPORTO,GYN,Aeroporto",GOIANIA AEROPORTO,GYN,GOIÂNIA,-16.628425,-49.207465,74672-842,Todos os dias - 24h (inclusive feriados),AEROPORTO
23,GOIANIA REPUBLICA DO LIBANO,"GOIANIA REPUBLICA DO LIBANO,MOVHCG,RUA",GOIANIA REPUBLICA DO LIBANO,MOVHCG,GOIÂNIA,-16.683027,-49.266432,74115-030,Segunda a Sexta - 07:00 às 19:00 | Sábados - 08:00 às 12:00 | Domingos e Feriado - Fechada.,cidade
24,RIO VERDE,"RIO VERDE,MOVRVD,RUA",RIO VERDE,MOVRVD,RIO VERDE,-17.800993,-50.943231,75908-570,Segunda a Sexta: 08:00 às 18:00 | Sábados - 8:00 às 12:00 | Domingos e Feriados -  Fechada,cidade
25,IMPERATRIZ AEROPORTO,"IMPERATRIZ AEROPORTO,IMP,Aeroporto",IMPERATRIZ AEROPORTO,IMP,IMPERATRIZ,-5.534209,-47.458466,65913-415,Segunda a Sexta - 01:00 às 18:00 | Sábado 01:00 às 14:00 | Domingos e Feriados - 08:00 às 15:00,AEROPORTO
26,SAO LUIS AEROPORTO,"SAO LUIS AEROPORTO,SLZ,Aeroporto",SAO LUIS AEROPORTO,SLZ,SÃO LUÍS,-2.582322,-44.23948,65056-480,Todos os dias 24 horas (inclusive feriados).,AEROPORTO
27,CUIABA CENTRO,"CUIABA CENTRO,CGBC01,RUA",CUIABA CENTRO,CGBC01,CUIABÁ,-15.619515,-56.089214,78065-310,Segunda a Sexta - 08:00 às 18:00 / Sábados - 08:00 às 12:00 | Domingos e Feriados - Fechada.,cidade
28,CUIABA AEROPORTO,"CUIABA AEROPORTO,CGB,Aeroporto",CUIABA AEROPORTO,CGB,VÁRZEA GRANDE,-15.651069,-56.122128,78110-900,Todos os dias - 24hrs (inclusive feriados).,AEROPORTO
29,CAMPO GRANDE AEROPORTO,"CAMPO GRANDE AEROPORTO,CGR,Aeroporto",CAMPO GRANDE AEROPORTO,CGR,CAMPO GRANDE,-20.456297,-54.674364,79101-901,Todos os dias - 24hrs (inclusive feriados),AEROPORTO
30,CAMPO GRANDE CENTRO,"CAMPO GRANDE CENTRO,MOVCGC,RUA",CAMPO GRANDE CENTRO,MOVCGC,CAMPO GRANDE,-20.475033,-54.589773,79041-000,Segunda a Sexta - 08:00 às 18:00 | Sábado 8:00 às 12:00 | Domingos e Feriado - fechada.,cidade
31,BELO HORIZONTE - PRADO - TERESA CRISTINA,"BELO HORIZONTE - PRADO - TERESA CRISTINA,BHVE,RUA",BELO HORIZONTE - PRADO - TERESA CRISTINA,BHVE,BELO HORIZONTE,-19.9169998,-43.96519,30410-600,Segunda a Sexta - 08:00 às 19:00 | Sábado 8:00 às 12:00 | Domingos e Feriado - fechada.,cidade
32,BELO HORIZONTE BARAO HOMEM DE MELO,"BELO HORIZONTE BARAO HOMEM DE MELO,MOVBHC,RUA",BELO HORIZONTE BARAO HOMEM DE MELO,MOVBHC,BELO HORIZONTE,-19.960637,-43.966581,30494-085,Segunda a Sexta - 8:00 às 19:00 | Sábado - 8:00 às 12:00 | Domingos e Feriado - fechada,cidade
33,BELO HORIZONTE LOURDES BIAS FORTES,"BELO HORIZONTE LOURDES BIAS FORTES,MOVBHZ,RUA",BELO HORIZONTE LOURDES BIAS FORTES,MOVBHZ,BELO HORIZONTE,-19.929846,-43.940845,30170-010,Segunda a Sexta - 07:00 às 19:00 | Sábado 8:00 às 12:00 | Domingos: Fechada | Feriados - 08:00 às 13:00,cidade
34,BELO HORIZONTE PAMPULHA ANTONIO CARLOS,"BELO HORIZONTE PAMPULHA ANTONIO CARLOS,PLU,RUA",BELO HORIZONTE PAMPULHA ANTONIO CARLOS,PLU,BELO HORIZONTE,-19.8702297,-43.9577818,31210-800,Segunda a Sexta - 07:00 às 19:00 | Sábado - 08:00 às 16:00 | Domingos e Feriados - 12:00 as 20:00,cidade
35,BELO HORIZONTE PAMPULHA CATALAO,"BELO HORIZONTE PAMPULHA CATALAO,MOVBHCL,RUA",BELO HORIZONTE PAMPULHA CATALAO,MOVBHCL,BELO HORIZONTE,-19.9038208,-43.9677371,31230-000,Segunda a Sexta - 08:00 às 18:00 | Sábado 8:00 às 12:00 | Domingos e Feriado - fechada.,cidade
36,BETIM,"BETIM,MOVBET,RUA",BETIM,MOVBET,BETIM,-19.964196,-44.19029,32670-248,Segunda a Sexta - 08:00 às 17:00 | Sábado 8:00 às 12:00 | Domingos e Feriado - fechada.,cidade
37,CONTAGEM,"CONTAGEM,MOVCTG,RUA",CONTAGEM,MOVCTG,CONTAGEM,-19.9514561,-44.0286691,32210-180,Segunda a Sexta - 07:00 às 17:00 | Sábado 8:00 às 12:00 |Domingos e Feriado - fechada.,cidade
38,JUIZ DE FORA CENTRO,"JUIZ DE FORA CENTRO,JDFC,RUA",JUIZ DE FORA CENTRO,JDFC,JUIZ DE FORA,-21.746103,-43.353936,36035-000,Segunda a Sexta - 07:00 às 18:00 | Sábados - 8:00 às 12:00 |Domingos e Feriados - fechada.,cidade
39,BELO HORIZONTE AEROPORTO CONFINS,"BELO HORIZONTE AEROPORTO CONFINS,CNF,Aeroporto",BELO HORIZONTE AEROPORTO CONFINS,CNF,LAGOA SANTA,-19.658218,-43.941893,33400-000,Todos os dias 24hs  (inclusive feriados).,AEROPORTO
40,MONTES CLAROS AEROPORTO,"MONTES CLAROS AEROPORTO,MOC,Aeroporto",MONTES CLAROS AEROPORTO,MOC,MONTES CLAROS,-16.704923,-43.819818,39404-844,Seg à sex: 05h00 às 00h00 | Sábado: 05h00 às 14h00 | Domingos e Feriados: 15h00 às 00h00,AEROPORTO
41,POUSO ALEGRE,"POUSO ALEGRE,MOVPAL,RUA",POUSO ALEGRE,MOVPAL,POUSO ALEGRE,-22.233352,-45.926702,37554-020,Segunda a Sexta - 08:00 às 17:00 | Sábado 8:00 às 12:00 |Domingos e Feriado - fechada.,cidade
42,UBERABA AEROPORTO,"UBERABA AEROPORTO,UBA,Aeroporto",UBERABA AEROPORTO,UBA,UBERABA,-19.765015,-47.961712,38055-500,Segunda a Sexta - 8:00 às 18:00 | Sábado -  8:00 às 12:00 | Domingos e Feriados - Fechada,AEROPORTO
43,UBERLANDIA AEROPORTO,"UBERLANDIA AEROPORTO,UDI,Aeroporto",UBERLANDIA AEROPORTO,UDI,UBERLÂNDIA,-18.8878455,-48.2332034,38406-382,Segunda à sexta-feira: 04h00 às 01h00 - Sábado 05h00 às 21h00 - Domingos e Feriados: 08h00 às 20h00.,AEROPORTO
44,JOAO PESSOA AEROPORTO,"JOAO PESSOA AEROPORTO,JPA,Aeroporto",JOAO PESSOA AEROPORTO,JPA,BAYEUX,-7.145439,-34.948186,58308-901,Todos os dias 00:00 às 23:59 (inclusive feriados).,AEROPORTO
45,CAMPINA GRANDE AEROPORTO,"CAMPINA GRANDE AEROPORTO,CPV,Aeroporto",CAMPINA GRANDE AEROPORTO,CPV,CAMPINA GRANDE,-7.2688784,-35.8962093,58418-410,Segunda a Sexta - 08:00 às 18:00 | Sábado 8:00 às 12:00 |Domingos e Feriado - fechada.,AEROPORTO
46,JOAO PESSOA EPITACIO,"JOAO PESSOA EPITACIO,JPAC01,RUA",JOAO PESSOA EPITACIO,JPAC01,JOÃO PESSOA,-7.119348,-34.860693,58030-906,"Segunda a Sexta - 8:00 às 19:00 | Sábado, Domingos e Feriado - 08:00 às 14:00",cidade
47,CASCAVEL,"CASCAVEL,MOVCCV,RUA",CASCAVEL,MOVCCV,CASCAVEL,-24.965732,-53.483245,85805-030,Segunda a sexta - 08:00 às 18:00 / Sábado -08:00 às 12:00 /Domingos e Feriados - Fechada,cidade
48,CURITIBA CENTRO,"CURITIBA CENTRO,MOVCWB,RUA",CURITIBA CENTRO,MOVCWB,CURITIBA,-25.448872,-49.261603,80220-180,Segunda a Sexta - 07:00 às 19:00 | Sábado 08:00 às 12:00 | Domingos e Feriados - fechada,cidade
49,FOZ DO IGUACU AEROPORTO,"FOZ DO IGUACU AEROPORTO,IGU,Aeroporto",FOZ DO IGUACU AEROPORTO,IGU,FOZ DO IGUAÇU,-25.600917,-54.492108,85853-900,Todos os dias: 24h (inclusive feriados).,AEROPORTO
50,LONDRINA AEROPORTO,"LONDRINA AEROPORTO,LDB,Aeroporto",LONDRINA AEROPORTO,LDB,LONDRINA,-23.326438,-51.139629,86039-100,Todos os dias - 06:00 às 23:59 (inclusive feriados),AEROPORTO
51,MARINGA AEROPORTO,"MARINGA AEROPORTO,MGF,Aeroporto",MARINGA AEROPORTO,MGF,MARINGÁ,-23.480451,-52.01398,87065-665,Todos os dias das 06:00h as 22:00h (inclusive feriados).,AEROPORTO
52,PONTA GROSSA,"PONTA GROSSA,MOVPTG,RUA",PONTA GROSSA,MOVPTG,PONTA GROSSA,-25.129727,-50.154862,84045-100,Segunda a Sexta - 08:00 às 18:00 | Sábado 8:00 às 12:00 | Domingos e Feriado - fechada.,cidade
53,CURITIBA AEROPORTO,"CURITIBA AEROPORTO,CWB,Aeroporto",CURITIBA AEROPORTO,CWB,SÃO JOSÉ DOS PINHAIS,-25.532883,-49.172674,83010-900,Todos os dias (inclusive feriados) das 00:00 às 23:59,AEROPORTO
54,BELEM AEROPORTO,"BELEM AEROPORTO,BEL,Aeroporto",BELEM AEROPORTO,BEL,BELÉM,-1.389298,-48.481069,66115-970,Todos os dias 24 horas (inclusive feriados).,AEROPORTO
55,BELEM CENTRO,"BELEM CENTRO,MOVBLC,RUA",BELEM CENTRO,MOVBLC,BELÉM,-1.430282,-48.460202,66093-671,Segunda a Sexta - 08:00 às 18:00 | Sábados - 08:00 às 14:00 | Domingos e Feriados- Fechada,cidade
56,MARABA AEROPORTO EXTERNO,"MARABA AEROPORTO EXTERNO,MAB,Aeroporto",MARABA AEROPORTO EXTERNO,MAB,MARABÁ,-5.372534,-49.13285,68502-290,Segunda a Sexta- 01:00 às 18:00 | Sábados- 01:00 às 15:00 | Domingos e Feriados: Fechada.,AEROPORTO
57,PARAUAPEBAS AEROPORTO,"PARAUAPEBAS AEROPORTO,CRJ,Aeroporto",PARAUAPEBAS AEROPORTO,CRJ,PARAUAPEBAS,-6.114447,-50.001018,68515-000,"Segunda a Sexta - 11:00 às 17:40 | Sábado, Domingos e Feriados - Fechada.",AEROPORTO
58,PARAUAPEBAS CENTRO,"PARAUAPEBAS CENTRO,MOVCKS,RUA",PARAUAPEBAS CENTRO,MOVCKS,PARAUAPEBAS,-6.073085,-49.894403,68515-000,Segunda a sexta - 08:00 às 18:00 | Sábado - 08:00 às 14:00 | Domingo e Feriados - fechada,cidade
59,PETROLINA AEROPORTO,"PETROLINA AEROPORTO,PNZ,Aeroporto",PETROLINA AEROPORTO,PNZ,PETROLINA,-9.366478,-40.56587,56313-900,Todos os dias 24h (inclusive feriados),AEROPORTO
60,RECIFE AEROPORTO,"RECIFE AEROPORTO,REC,Aeroporto",RECIFE AEROPORTO,REC,RECIFE,-8.0989302,-34.9260123,51210-001,Todos os dias 00:00 às 23:59 horas (inclusive feriados).,AEROPORTO
61,RECIFE CAXANGA,"RECIFE CAXANGA,RECC02,RUA",RECIFE CAXANGA,RECC02,RECIFE,-8.042861,-34.934081,50731-000,Segunda a Sexta - 8:00 às 19:00 | Sábado - 8:00 às 12:00 | Domingos e Feriados - fechada,cidade
62,TERESINA AEROPORTO,"TERESINA AEROPORTO,THE,Aeroporto",TERESINA AEROPORTO,THE,TERESINA,-5.063336,-42.821099,64003-700,Todos os dias 24 horas (inclusive feriados).,AEROPORTO
63,CAMPOS DOS GOYTACAZES,"CAMPOS DOS GOYTACAZES,MOVCPG,RUA",CAMPOS DOS GOYTACAZES,MOVCPG,CAMPOS DOS GOYTACAZES,-21.767449,-41.322017,28020-740,Segunda a Sexta - 09:00 às 18:00 | Sábado - 09:00 às 12:00 | Domingos e Feriado - fechada.,cidade
64,MACAE,"MACAE,MOVMCE,RUA",MACAE,MOVMCE,MACAÉ,-22.385487,-41.775633,27915-012,Segunda a Sexta - 08:00 às 17:00 | Sábados - 08:00 às 12:00 | Domingos e Feriados - Fechada,cidade
65,NITEROI,"NITEROI,MOVNTR,RUA",NITEROI,MOVNTR,NITERÓI,-22.889091,-43.114155,24060-008,Segunda a Sexta - 09:00 às 18:00 | Sábado 08:00 às 12:00 |Domingos e Feriado - fechada.,cidade
66,RESENDE,"RESENDE,MOVQRZ,RUA",RESENDE,MOVQRZ,RESENDE,-22.464583,-44.441054,27535-320,Segunda a Sexta - 09:00 às 18:00 | Sábado 8:00 às 12:00 |Domingos e Feriado - fechada.,cidade
67,RIO DE JANEIRO - BARRA DA TIJUCA,"RIO DE JANEIRO - BARRA DA TIJUCA,MOVRJB,RUA",RIO DE JANEIRO - BARRA DA TIJUCA,MOVRJB,RIO DE JANEIRO,-23.00481,-43.32168,22640-100,Segunda a Sexta - 8:00 às 17:00 | Sábado - 8:00 às 12:00 | Domingos e Feriado - fechada,cidade
68,RIO DE JANEIRO - BARRA DA TIJUCA AYRTON SENNA,"RIO DE JANEIRO - BARRA DA TIJUCA AYRTON SENNA,RIOAYR,RUA",RIO DE JANEIRO - BARRA DA TIJUCA AYRTON SENNA,RIOAYR,RIO DE JANEIRO,-22.9712318,-43.3643493,22775-004,Segunda a Sexta - 07:00 às 19:00 | Sábados - 07:00 às 11:00 | Domingos e Feriados - Fechada,cidade
69,RIO DE JANEIRO - BARRA DA TIJUCA EXTRA,"RIO DE JANEIRO - BARRA DA TIJUCA EXTRA,RIOS02,RUA",RIO DE JANEIRO - BARRA DA TIJUCA EXTRA,RIOS02,RIO DE JANEIRO,-22.998818,-43.32661,22640-900,Segunda a Sexta - 07:00 às 20:00 | Sábado 8:00 às 17:00 | Domingos e Feriado - 12:00 às 20:00,cidade
70,RIO DE JANEIRO - COPACABANA RIO SUL SH,"RIO DE JANEIRO - COPACABANA RIO SUL SH,MOVCOPA,Shopping",RIO DE JANEIRO - COPACABANA RIO SUL SH,MOVCOPA,RIO DE JANEIRO,-22.9579702,-43.178285,22290-090,Segunda a Sábado - 08:00 às 20:00 | Domingos - 12:00 às 20:00 | Feriados - 08:00 às 20:00,cidade
71,RIO DE JANEIRO - GALEAO AEROPORTO,"RIO DE JANEIRO - GALEAO AEROPORTO,GIG,Aeroporto",RIO DE JANEIRO - GALEAO AEROPORTO,GIG,RIO DE JANEIRO,-22.815247,-43.241231,21941-570,"Todos os dias - 24h (inclusive feriados) - Das 23h às 6h, estaremos atendendo somente reservas WALKIN no BOX do DESEMBARQUE DOMÉSTICO - Para comunicar devoluções após as 23h : (21) 967010831",AEROPORTO
72,RIO DE JANEIRO - JACAREPAGUA,"RIO DE JANEIRO - JACAREPAGUA,MOVJPG,Hotel",RIO DE JANEIRO - JACAREPAGUA,MOVJPG,RIO DE JANEIRO,-22.965783,-43.397086,22780-160,Segunda a Sexta - 8:00 às 17:00 | Sábados - 8:00 às 12:00 | Domingos e Feriados - fechada,cidade
73,RIO DE JANEIRO - LEBLON,"RIO DE JANEIRO - LEBLON,RJL,RUA",RIO DE JANEIRO - LEBLON,RJL,RIO DE JANEIRO,-22.9814997,-43.2245594,22430-220,Segunda a Sexta - 08 às 20h | Sábados - 08 às 16h | Domingos e Feriados - 08 ás 12h,cidade
74,RIO DE JANEIRO - MADUREIRA,"RIO DE JANEIRO - MADUREIRA,MOVMDR,RUA",RIO DE JANEIRO - MADUREIRA,MOVMDR,RIO DE JANEIRO,-22.87978,-43.355463,21341-331,Segunda a Sexta - 07:00 às 17:00 | Sábado 8:00 às 12:00 |Domingos e Feriado - fechada.,cidade
75,RIO DE JANEIRO - SHOPPING BOULEVARD,"RIO DE JANEIRO - SHOPPING BOULEVARD,MOVSHH,Shopping",RIO DE JANEIRO - SHOPPING BOULEVARD,MOVSHH,RIO DE JANEIRO,-22.919485,-43.24996,20541-372,Segunda a Sábado - 10:00 às 20:00 | Domingos e Feriado - 12:00 às 20:00,cidade
76,RIO DE JANEIRO-SANTOS DUMONT AEROMARINA GLORIA,"RIO DE JANEIRO-SANTOS DUMONT AEROMARINA GLORIA,SDU,Aeroporto",RIO DE JANEIRO-SANTOS DUMONT AEROMARINA GLORIA,SDU,RIO DE JANEIRO,-22.921059,-43.170558,20021-140,Todos os dias 06:00 às 23:00 (inclusive feriados) loja. Box apenas horário de voo,AEROPORTO
77,MOSSORO,"MOSSORO,MOVMSR,RUA",MOSSORO,MOVMSR,MOSSORÓ,-5.197545,-37.340588,59625-000,Segunda a Sexta - 08:00 às 18:00 | Sábado 8:00 às 12:00 |Domingos e Feriado - fechada.,cidade
78,NATAL PONTA NEGRA,"NATAL PONTA NEGRA,MOVNTC,RUA",NATAL PONTA NEGRA,MOVNTC,NATAL,-5.872751,-35.179536,59090-080,"Segunda a Sexta - 8:00 às 20:00 | Sábado, Domingos e Feriado - 08:00 às 14:00",cidade
79,NATAL AEROPORTO,"NATAL AEROPORTO,NAT,Aeroporto",NATAL AEROPORTO,NAT,SÃO GONÇALO DO AMARANTE,-5.763028,-35.372594,59290-000,Todos os dias 00:00h às 23:59h (inclusive feriados),AEROPORTO
80,CAXIAS DO SUL AEROPORTO,"CAXIAS DO SUL AEROPORTO,CXJ,Aeroporto",CAXIAS DO SUL AEROPORTO,CXJ,CAXIAS DO SUL,-29.19491,-51.186561,95098-420,Segunda à Sexta: 08:00 às 20:00 | Sábados 08:00 às 12:00 | Domingos e Feriados - 13:30 às 19:30.,AEROPORTO
81,NOVO HAMBURGO,"NOVO HAMBURGO,MOVNHG,RUA",NOVO HAMBURGO,MOVNHG,NOVO HAMBURGO,-29.691216,-51.13588,93336-001,Segunda a Sexta - 08:00 às 18:00 | Sábado - 08:00 às 12:00|Domingos e Feriado - fechada.,cidade
82,PELOTAS,"PELOTAS,MOVPLT,RUA",PELOTAS,MOVPLT,PELOTAS,-31.744818,-52.342642,96020-151,Segunda a Sexta - 08:00 às 18:00 | Sábados - 08:00 às 12:00 | Domingos e Feriados - fechada,cidade
83,PORTO ALEGRE - SHOPPING BARRA SUL,"PORTO ALEGRE - SHOPPING BARRA SUL,BSS,RUA",PORTO ALEGRE - SHOPPING BARRA SUL,BSS,PORTO ALEGRE,-30.084651,-51.245881,90810-080,Segunda a sexta 8:00 às 20:00 |  Sábado das 10:00 às 20:00 | Domingos e Feriados das 14:00 às 20:00,cidade
84,PORTO ALEGRE AEROPORTO,"PORTO ALEGRE AEROPORTO,POA,Aeroporto",PORTO ALEGRE AEROPORTO,POA,PORTO ALEGRE,-29.993227,-51.175349,90200-290,Todos os dias - 24h (inclusive feriados),AEROPORTO
85,PORTO ALEGRE CENTRO,"PORTO ALEGRE CENTRO,MOVPOAC,RUA",PORTO ALEGRE CENTRO,MOVPOAC,PORTO ALEGRE,-30.035343,-51.177621,90480-002,Segunda a Sexta - 07:00 às 19:00 | Sábado 08:00 às 14:00 | Domingos e Feriados - fechada.,cidade
86,PORTO VELHO AEROPORTO,"PORTO VELHO AEROPORTO,PVH,Aeroporto",PORTO VELHO AEROPORTO,PVH,PORTO VELHO,-8.71467,-63.898327,76803-250,Todos os dias 24h (inclusive feriados),AEROPORTO
87,BOA VISTA AEROPORTO,"BOA VISTA AEROPORTO,BVB,Aeroporto",BOA VISTA AEROPORTO,BVB,BOA VISTA,2.841929,-60.694779,69310-006,"Horário Especial: Segunda a Sexta das 08:00 as 18:00 | Sábado, Domingo e Feriado: das 08:00 as 16:00",AEROPORTO
88,BLUMENAU,"BLUMENAU,MOVBLM,RUA",BLUMENAU,MOVBLM,BLUMENAU,-26.917054,-49.063537,89050-000,Segunda a sexta - 08:00 às 18:00 | Sábados - 08:00 às 12:00 | Domingos e Feriados - Fechada,cidade
89,FLORIANOPOLIS AEROPORTO,"FLORIANOPOLIS AEROPORTO,FLN,Aeroporto",FLORIANOPOLIS AEROPORTO,FLN,FLORIANÓPOLIS,-27.6774568,-48.5473961,88047-902,Todos os dias 24 horas (inclusive feriados).,AEROPORTO
90,JOINVILLE AEROPORTO,"JOINVILLE AEROPORTO,JOI,Aeroporto",JOINVILLE AEROPORTO,JOI,JOINVILLE,-26.223305,-48.801027,89226-435,Segunda a sexta - 8:00 às 20:00 | Sábados e Feriados - 8:00 às 18:00 |  Domingos - 10:00 às 20:00,AEROPORTO
91,JOINVILLE CENTRO,"JOINVILLE CENTRO,MOVJOI,RUA",JOINVILLE CENTRO,MOVJOI,JOINVILLE,-26.28682,-48.848618,89204-002,Segunda a Sexta: 07:00 às 18:00 | Sábados: 08:00 às 12:00 | Domingos e Feriados: Fechada,cidade
92,NAVEGANTES AEROPORTO,"NAVEGANTES AEROPORTO,NVT,Aeroporto",NAVEGANTES AEROPORTO,NVT,NAVEGANTES,-26.881707,-48.65017,88375-208,Todos os dias: 05:00 às 00:00 (inclusive feriados).,AEROPORTO
93,AMERICANA,"AMERICANA,MOVAME,RUA",AMERICANA,MOVAME,AMERICANA,-22.751129,-47.334387,13466-550,Segunda a Sexta - 08:00 às 18:00 | Sábado - 8:00 às 12:00 | Domingos e Feriados: Fechada,cidade
94,ARACATUBA,"ARACATUBA,MOVARB,RUA",ARACATUBA,MOVARB,ARAÇATUBA,-21.216067,-50.436525,16015-433,Segunda a Sexta: 08:00 às 18:00 | Sábado - 8:00 às 12:00 | Domingos e Feriados: Fechada,cidade
95,BARUERI ALPHAVILLE - RIO NEGRO,"BARUERI ALPHAVILLE - RIO NEGRO,MOVAPH,RUA",BARUERI ALPHAVILLE - RIO NEGRO,MOVAPH,BARUERI,-23.502369,-46.84764,06454-000,Segunda a Sexta - 07 às 20h | Sábados - 08 às 14h | Domingos e Feriados - 12h às 20hs,cidade
96,BARUERI ALPHAVILLE - TAMBORE,"BARUERI ALPHAVILLE - TAMBORE,BTAM,RUA",BARUERI ALPHAVILLE - TAMBORE,BTAM,BARUERI,-23.5035212,-46.8315528,06455-000,Segunda a Sexta - 07:00 às 20:00 | Sábado - 08:00h às 14:00 | Domingos e Feriados - 12:00 às 20:00,cidade
97,BAURU,"BAURU,MOVBAU,RUA",BAURU,MOVBAU,BAURU,-22.320135,-49.068244,17010-130,Segunda a Sexta - 08:00 às 19:00 | Sábado 8:00 às 12:00 |Domingos e Feriado - fechada.,cidade
98,CAMPINAS AEROPORTO,"CAMPINAS AEROPORTO,VCP,Aeroporto",CAMPINAS AEROPORTO,VCP,CAMPINAS,-23.0081389,-47.1487443,13055-900,Todos os dias - 5:00 às 23:59 (inclusive feriados),AEROPORTO
99,CAMPINAS MORAES SALES,"CAMPINAS MORAES SALES,MOVCPQC,RUA",CAMPINAS MORAES SALES,MOVCPQC,CAMPINAS,-22.906472,-47.044745,13100-201,Segunda a sexta das 07:00 às 20:00 / Sábado 08:00 às 14:00 / Domingos e feriados - Fechada,cidade
100,CAMPINAS OROSIMBO,"CAMPINAS OROSIMBO,CPQO,RUA",CAMPINAS OROSIMBO,CPQO,CAMPINAS,-22.8881791,-47.0556328,13010-211,Segunda a sexta das 07:00 às 20:00 / Sábado 08:00 às 14:00 / Domingos e feriados - 12:00 às 20:00.,cidade
101,COTIA GRANJA VIANNA SHOPPING,"COTIA GRANJA VIANNA SHOPPING,MOVGRV,Shopping",COTIA GRANJA VIANNA SHOPPING,MOVGRV,COTIA,-23.59287,-46.834378,06709-015,Segunda a sábado - 10:00 às 22:00 / Domingos e Feriados - 14:00 às 20:00,cidade
102,FRANCA,"FRANCA,MOVFRA,RUA",FRANCA,MOVFRA,FRANCA,-20.546474,-47.398993,14403-050,Segunda a Sexta- 08:00 às 17:00 | Sábados - 08:00 às 12:00 | Domingos e feriados: Fechada.,cidade
103,GUARATINGUETA,"GUARATINGUETA,GUJ,RUA",GUARATINGUETA,GUJ,GUARATINGUETÁ,-22.813958,-45.201897,12505-300,Segunda a Sexta - 08:00 às 18:00 | Sábados - 08:00 às 12:00 | Domingos e Feriados - Fechada,cidade
104,SAO PAULO - GUARULHOS AEROPORTO,"SAO PAULO - GUARULHOS AEROPORTO,GRU,Aeroporto",SAO PAULO - GUARULHOS AEROPORTO,GRU,GUARULHOS,-23.446738,-46.490524,07190-100,Todos os dias 24 horas (inclusive feriados),AEROPORTO
105,SAO PAULO GUARULHOS TIMOTEO PENTEADO,"SAO PAULO GUARULHOS TIMOTEO PENTEADO,MOVGRUO,Concessionário",SAO PAULO GUARULHOS TIMOTEO PENTEADO,MOVGRUO,GUARULHOS,-23.45501,-46.557072,07061-001,Segunda a Sexta - 07:00 às 18:00 | Sábados - 08:00 às 12:00 | Domingos e Feriados - Fechada,cidade
106,INDAIATUBA,"INDAIATUBA,MOVIND,RUA",INDAIATUBA,MOVIND,INDAIATUBA,-23.121983,-47.223707,13346-630,Segunda a Sexta - 8:00 às 18:00 | Sábado - 8:00h às 12:00 | Domingos e Feriados: Fechada,cidade
107,JUNDIAI,"JUNDIAI,MOVJND,RUA",JUNDIAI,MOVJND,JUNDIAÍ,-23.214845,-46.874512,13206-105,Segunda a Sexta - 07 às 20h | Sábados - 08 às 14h | Domingos e Feriados - 12h às 20hs,cidade
108,MARILIA,"MARILIA,MOVMRL,RUA",MARILIA,MOVMRL,MARÍLIA,-22.196273,-49.93001,17514-000,Segunda a Sexta - 8:00 às 18:00 | Sábado - 8:00 às 12:00 | Domingos e Feriados: Fechada,cidade
109,MOGI DAS CRUZES,"MOGI DAS CRUZES,MOVMGC,Concessionário",MOGI DAS CRUZES,MOVMGC,MOGI DAS CRUZES,-23.528446,-46.20522,08735-000,Segunda a Sexta - 07:00 às 19:00 | Sábados - 08:00 às 12:00 | Domingos e Feriados - Fechada,cidade
110,OSASCO,"OSASCO,MOVOSC,RUA",OSASCO,MOVOSC,OSASCO,-23.53862,-46.774999,06090-010,Segunda a Sexta - 08:00 às 19:00 | Sábados - 08:00 às 12:00 | Domingos e Feriados - Fechada,cidade
111,PIRACICABA,"PIRACICABA,MOVPRC,RUA",PIRACICABA,MOVPRC,PIRACICABA,-22.728465,-47.618147,13420-355,Segunda a Sexta - 08:00 às 19:00 | Sábado 8:00 às 12:00 | Domingos e Feriado - fechada.,cidade
112,PRESIDENTE PRUDENTE,"PRESIDENTE PRUDENTE,MOVPRP,RUA",PRESIDENTE PRUDENTE,MOVPRP,PRESIDENTE PRUDENTE,-22.119034,-51.402119,19015-241,Segunda a Sexta - 08:00 às 18:00 | Sábado - 8:00 às 12:00 | Domingos e Feriados: Fechada,cidade
113,RIBEIRAO PRETO AEROPORTO,"RIBEIRAO PRETO AEROPORTO,RAO,Aeroporto",RIBEIRAO PRETO AEROPORTO,RAO,RIBEIRÃO PRETO,-21.1394,-47.777,14075-390,Segunda à Sexta-feira - 05:00 às 00:00 | Sábado 8:00 às 12:00 | Domingos e Feriado - fechada.,AEROPORTO
114,RIBEIRAO PRETO CASTELO BRANCO,"RIBEIRAO PRETO CASTELO BRANCO,MOVRPT,RUA",RIBEIRAO PRETO CASTELO BRANCO,MOVRPT,RIBEIRÃO PRETO,-21.199749,-47.768683,14095-000,Segunda a Sexta - 8:00 às 18:00 | Sábado -  8:00 às 12:00 | Domingos e Feriados: Fechada,cidade
115,SANTO ANDRE,"SANTO ANDRE,MOVSTA,RUA",SANTO ANDRE,MOVSTA,SANTO ANDRÉ,-23.639854,-46.540993,09080-001,Segunda a Sexta - 07:00 às 19:00 | Sábados - 08:00 às 12:00 | Domingos e Feriados - Fechada,cidade
116,SANTOS AFFONSO PENNA,"SANTOS AFFONSO PENNA,MOVLSSZ,RUA",SANTOS AFFONSO PENNA,MOVLSSZ,SANTOS,-23.958606,-46.320829,11020-000,Segunda à Sexta - 07:00 às 19:00 | Sábados - 08:00 às 14:00 | Domingos e Feriados - 14:00 às 19:00,cidade
117,SAO BERNARDO EXTRA ANCHIETA,"SAO BERNARDO EXTRA ANCHIETA,MOVSBCK,RUA",SAO BERNARDO EXTRA ANCHIETA,MOVSBCK,SÃO BERNARDO DO CAMPO,-23.668856,-46.573554,09695-000,Segunda a Sexta - 07:00 às 19:00 | Sábados - 08:00 às 14:00 | Domingos e Feriados - Fechada,cidade
118,SAO BERNARDO PLAZA SHOPPING,"SAO BERNARDO PLAZA SHOPPING,MOVSBF,RUA",SAO BERNARDO PLAZA SHOPPING,MOVSBF,SÃO BERNARDO DO CAMPO,-23.7232218,-46.5453837,09721-000,Segunda à Sexta: 08:00 às 20:00 | Sábados - 09:00 às 15:00 | Domingos e Feriados: 14:00 às 19:00,cidade
119,SAO CAETANO DO SUL,"SAO CAETANO DO SUL,SCSAPP,RUA",SAO CAETANO DO SUL,SCSAPP,SÃO CAETANO DO SUL,-23.607613,-46.570386,09520-120,Segunda a Sexta - 07:00 às 19:00 | Sábados - 07:00 às 11:00 | Domingos e Feriados - Fechada,cidade
120,SAO CARLOS,"SAO CARLOS,MOVSCL,RUA",SAO CARLOS,MOVSCL,SÃO CARLOS,-22.005448,-47.891174,13560-011,Segunda a Sexta - 08:00 às 17:00 | Sábado - 8:00 às 12:00 | Domingos e Feriados: Fechada,cidade
121,SAO JOSE DO RIO PRETO AEROPORTO,"SAO JOSE DO RIO PRETO AEROPORTO,SJP,RUA",SAO JOSE DO RIO PRETO AEROPORTO,SJP,SÃO JOSÉ DO RIO PRETO,-20.810963,-49.403122,15025-310,Segunda a Sexta: 07:00 às 18:00 | Sábados: 08:00 às 12:00 | Domingos e Feriados: Fechada,cidade
122,SAO JOSE DO RIO PRETO ANISIO HADDAD,"SAO JOSE DO RIO PRETO ANISIO HADDAD,MOVSJP,RUA",SAO JOSE DO RIO PRETO ANISIO HADDAD,MOVSJP,SÃO JOSÉ DO RIO PRETO,-20.842164,-49.40178,15090-305,Segunda a Sexta: 08:00 às 18:00 | Sábado -  08:00 às 12:00 | Domingos e Feriados: Fechada,cidade
123,SAO JOSE DOS CAMPOS,"SAO JOSE DOS CAMPOS,MOVSJC,RUA",SAO JOSE DOS CAMPOS,MOVSJC,SÃO JOSÉ DOS CAMPOS,-23.203607,-45.904758,12242-001,Segunda a Sexta - 08:00 às 18:30 | Sábados - 08:00 às 14:00 | Domingos e Feriados - Fechada,cidade
124,SAO PAULO - AVENIDA ARICANDUVA,"SAO PAULO - AVENIDA ARICANDUVA,ARIAPP,RUA",SAO PAULO - AVENIDA ARICANDUVA,ARIAPP,SÃO PAULO,-23.5681,-46.5058,03490-000,Segunda a Sexta - 07:00 às 19:00 | Sábados - 07:00 às 11:00 | Domingos e Feriados - Fechada,cidade
125,SAO PAULO - BARRA FUNDA,"SAO PAULO - BARRA FUNDA,MOVPBF,RUA",SAO PAULO - BARRA FUNDA,MOVPBF,SÃO PAULO,-23.520467,-46.672235,01139-003,Segunda à Sexta - 07:00 às 19:00 | Sábados - 08:00 às 14:00 | Domingos e Feriados - 10:00 às 18:00,cidade
126,SAO PAULO - CONGONHAS AEROPORTO,"SAO PAULO - CONGONHAS AEROPORTO,CGH,Aeroporto",SAO PAULO - CONGONHAS AEROPORTO,CGH,SÃO PAULO,-23.62058,-46.662296,04613-000,Todos os dias: 05:30 às 23:00 (Inclusive Feriados),AEROPORTO
127,SAO PAULO - CONSOLACAO,"SAO PAULO - CONSOLACAO,MOVCSL,RUA",SAO PAULO - CONSOLACAO,MOVCSL,SÃO PAULO,-23.547918,-46.644201,01301-100,Segunda a Sábado - 07:00 às 19:00 | Domingos e Feriados - 12:00 às 20:00,cidade
128,SAO PAULO - CRUZEIRO DO SUL,"SAO PAULO - CRUZEIRO DO SUL,MOVCZS,RUA",SAO PAULO - CRUZEIRO DO SUL,MOVCZS,SÃO PAULO,-23.514602,-46.625452,02031-000,Segunda a Sábado - 07:00 às 22:00 | Domingos e Feriados - 12:00 às 22:00,cidade
129,SAO PAULO - ITAIM BIBI BRASCAN,"SAO PAULO - ITAIM BIBI BRASCAN,SAOS13,Shopping",SAO PAULO - ITAIM BIBI BRASCAN,SAOS13,SÃO PAULO,-23.5843405,-46.6750242,04534-002,Segunda à Sexta: 08:00h às 19:00h | Sábados 8:00h às 12:00h | Domingos e Feriados: Fechada,cidade
130,SAO PAULO - ITAIM PAULISTA,"SAO PAULO - ITAIM PAULISTA,SAOC25,RUA",SAO PAULO - ITAIM PAULISTA,SAOC25,SÃO PAULO,-23.494979,-46.406295,08115-000,Segunda a Sexta - 08:00 às 18:00 | Sábados - 08:00 às 12:00 | Domingos e Feriados - Fechada,cidade
131,SAO PAULO - JUSCELINO KUBITSCHEK,"SAO PAULO - JUSCELINO KUBITSCHEK,MOVJKK,RUA",SAO PAULO - JUSCELINO KUBITSCHEK,MOVJKK,SÃO PAULO,-23.58962,-46.67773,04543-000,Segunda a Sábado - 07:00 às 22:00 | Domingos e Feriados - 12:00 às 22:00,cidade
132,SAO PAULO - MOEMA,"SAO PAULO - MOEMA,MOVMOM,RUA",SAO PAULO - MOEMA,MOVMOM,SÃO PAULO,-23.605541,-46.657332,04077-021,Segunda a Sexta - 08:00 às 19:00 | Sábados - 08:00 às 12:00 | Domingos e Feriados - Fechada,cidade
133,SAO PAULO - NACOES UNIDAS,"SAO PAULO - NACOES UNIDAS,SPNU,RUA",SAO PAULO - NACOES UNIDAS,SPNU,SÃO PAULO,-23.6796965,-46.694456,04795-100,Segunda à Sexta-feira das 07:00h às 19:00h | Sábado das 08:00h às 14:00h | Domingos e Feriados das 12:00h às 20:00h.,cidade
134,SAO PAULO - PENHA,"SAO PAULO - PENHA,MOVPEN,RUA",SAO PAULO - PENHA,MOVPEN,SÃO PAULO,-23.512655,-46.523873,03601-000,Segunda a Sexta - 07:00 às 18:00 | Sábados - 08:00 às 12:00 | Domingos e Feriados - Fechada,cidade
135,SAO PAULO - RODOVIARIA TIETE,"SAO PAULO - RODOVIARIA TIETE,MOVRDT,RUA",SAO PAULO - RODOVIARIA TIETE,MOVRDT,SÃO PAULO,-23.516512,-46.624965,02030-000,Segunda a Sábado - 07:00 às 22:00 | Domingos e Feriados - 12:00 às 22:00,cidade
136,SAO PAULO - SAUDE,"SAO PAULO - SAUDE,MOVSAU,RUA",SAO PAULO - SAUDE,MOVSAU,SÃO PAULO,-23.617758,-46.627921,04123-001,Segunda a Sexta - 08:00 às 19:00 | Sábados - 08:00 às 12:00 | Domingos e Feriados - Fechada,cidade
137,SAO PAULO - SHOPPING ARICANDUVA,"SAO PAULO - SHOPPING ARICANDUVA,SHA,Shopping",SAO PAULO - SHOPPING ARICANDUVA,SHA,SÃO PAULO,-23.565872,-46.501153,03527-908,Segunda a Sexta - 08:00 às 20:00 | Sábados - 08:00 às 20:00 | Feriados - 14:00 às 19:00 | Domingos: FECHADA.,cidade
138,SAO PAULO - SHOPPING BUTANTA,"SAO PAULO - SHOPPING BUTANTA,MOVBUT,Shopping",SAO PAULO - SHOPPING BUTANTA,MOVBUT,SÃO PAULO,-23.584593,-46.725024,05512-300,Segunda a Sábado - 08:00 às 20:00 | Domingos e Feriados - 12:00 às 20:00,cidade
139,SAO PAULO - SHOPPING CAMPO LIMPO,"SAO PAULO - SHOPPING CAMPO LIMPO,MOVCNP,Shopping",SAO PAULO - SHOPPING CAMPO LIMPO,MOVCNP,SÃO PAULO,-23.649196,-46.758316,05777-970,Segunda a sexta das 07:00 às 20:00 | Sábado das 08:00 às 14:00 | Domingos e feriados das 14:00 às 20:00,cidade
140,SAO PAULO - SHOPPING CENTER NORTE,"SAO PAULO - SHOPPING CENTER NORTE,MOVSCN,Shopping",SAO PAULO - SHOPPING CENTER NORTE,MOVSCN,SÃO PAULO,-23.514564,-46.619873,02089-900,Segunda a Sexta - 08:00 às 20:00 | Sábados - 08:00 às 14:00 | Domingos e Feriados - Fechada,cidade
141,SAO PAULO - SHOPPING DED - BROOKLIN,"SAO PAULO - SHOPPING DED - BROOKLIN,SAOS08,Shopping",SAO PAULO - SHOPPING DED - BROOKLIN,SAOS08,SÃO PAULO,-23.6095956,-46.7001739,04578-903,Segunda a Sábado - 08:00 às 20:00 | Domingos e Feriados - 12:00 às 20:00,cidade
142,SAO PAULO - SHOPPING PATIO PAULISTA,"SAO PAULO - SHOPPING PATIO PAULISTA,SAOC27,Shopping",SAO PAULO - SHOPPING PATIO PAULISTA,SAOC27,SÃO PAULO,-23.5705529,-46.6457135,01327-900,Segunda a sábado das 08h00 as 22h00 | Domingos e feriados  das 12h00 as 22h00.,cidade
143,SAO PAULO - SHOPPING SANTA CRUZ,"SAO PAULO - SHOPPING SANTA CRUZ,MOVSSC,Shopping",SAO PAULO - SHOPPING SANTA CRUZ,MOVSSC,SÃO PAULO,-23.599307,-46.636805,04036-100,Segunda a Sábado - 08:00 às 20:00 | Domingos e Feriados - 14:00 às 20:00,cidade
144,SAO PAULO - TATUAPE - MARGINAL TIETE,"SAO PAULO - TATUAPE - MARGINAL TIETE,SPMT,RUA",SAO PAULO - TATUAPE - MARGINAL TIETE,SPMT,SÃO PAULO,-23.5293828,-46.5816766,03074-000,Segunda à Sexta: 07:00h às 20:00h | Sábados 7:00h às 13:00h | Domingos e Feriados: Fechada,cidade
145,SAO PAULO - TATUAPE II,"SAO PAULO - TATUAPE II,MOVTAT,RUA",SAO PAULO - TATUAPE II,MOVTAT,SÃO PAULO,-23.535478,-46.573678,03063-000,Segunda a Sexta - 07:00 às 19:00 | Sábados - 08:00 às 14:00 | Domingos e Feriados - Fechada,cidade
146,SAO PAULO - VILA LEOPOLDINA,"SAO PAULO - VILA LEOPOLDINA,GASVI,RUA",SAO PAULO - VILA LEOPOLDINA,GASVI,SÃO PAULO,-23.52819,-46.739185,05314-000,Segunda a Sexta - 07:00 às 19:00 | Sábados - 08:00 às 12:00 | Domingos e Feriados - Fechada,cidade
147,SOROCABA CAMPOLIM,"SOROCABA CAMPOLIM,MOVSRB,RUA",SOROCABA CAMPOLIM,MOVSRB,SOROCABA,-23.527882,-47.465608,18047-620,Segunda a Sexta: 08:00 às 17:00 | Sábados 8:00 às 12:00 | Domingos e Feriados: Fechada,cidade
148,SOROCABA SHOPPING PATIO CIANE,"SOROCABA SHOPPING PATIO CIANE,SSPC,Shopping",SOROCABA SHOPPING PATIO CIANE,SSPC,SOROCABA,-23.4963889,-47.4621887,18035-370,Segunda a Sabado: 07:00 às 20:00 | Domingos e Feriados: 14:00 às 20:00.,cidade
149,SUZANO,"SUZANO,MOVSUZ,Concessionário",SUZANO,MOVSUZ,SUZANO,-23.540917,-46.306528,08676-000,Segunda a Sexta - 08 às 18h | Sábados - 08 às 12h | Domingos e Feriados - Fechada,cidade
150,TABOAO DA SERRA EXTRA,"TABOAO DA SERRA EXTRA,MOVTBS,RUA",TABOAO DA SERRA EXTRA,MOVTBS,TABOÃO DA SERRA,-23.608283,-46.753107,06763-450,Segunda a Sexta - 07:00 às 19:00 | Sábados - 08:00 às 12:00 | Domingos e Feriados - Fechada,cidade
151,TAUBATE,"TAUBATE,MOVTBT,RUA",TAUBATE,MOVTBT,TAUBATÉ,-23.025864,-45.579744,12030-212,Segunda a Sexta - 08:00 às 18:00 | Sábados - 08:00 às 12:00 | Domingos e Feriados: Fechada,cidade
152,ARACAJU AEROPORTO,"ARACAJU AEROPORTO,AJU,Aeroporto",ARACAJU AEROPORTO,AJU,ARACAJU,-10.987706,-37.073572,49037-580,Todos os dias 24hs  (inclusive feriados).,AEROPORTO
153,ARACAJU COROA DO MEIO,"ARACAJU COROA DO MEIO,AAR,RUA",ARACAJU COROA DO MEIO,AAR,ARACAJU,-10.9465545,-37.0452286,49035-500,Segunda a Sexta - 08:00 às 18:00 | Sábado 8:00 às 12:00 |Domingos e Feriado - fechada.,cidade
154,PALMAS AEROPORTO,"PALMAS AEROPORTO,PMW,Aeroporto",PALMAS AEROPORTO,PMW,PALMAS,-10.295576,-48.358159,77061-900,Segunda a Sexta - 10:00 às 18:00 | Sábados das 10:00 às 18:00 | Domingos e Feriados: Fechada,AEROPORTO
155,PALMAS CENTRO,"PALMAS CENTRO,MOVPLM,RUA",PALMAS CENTRO,MOVPLM,PALMAS,-10.189491,-48.33781,77015-030,Segunda a Sexta - 08:00 às 18:00 | Sábado - 8:00 às 12:00 | Domingos e Feriados: Fechada,cidade
